[
  {
    "reference": "101112",
    "address": "The British Museum, Great Russell St",
    "postcode": "WC1B 3DG",
    "description": "Installation of a new exhibition space on the ground floor.",
    "consultation_start_date": "2023-10-12",
    "consultation_end_date": "2023-10-26",
    "latitude": 51.5194,
    "longitude": -0.127,
    "radius": 800
  },
  {
    "reference": "131415",
    "address": "Trafalgar Square, London",
    "postcode": "WC2N 5DN",
    "description": "Renovation of the fountains and surrounding area.",
    "consultation_start_date": "2023-10-15",
    "consultation_end_date": "2023-10-30",
    "latitude": 51.5085,
    "longitude": -0.128,
    "radius": 600
  },
  {
    "reference": "161718",
    "address": "The London Eye, South Bank",
    "postcode": "SE1 7PB",
    "description": "Maintenance and upgrade of the observation wheel.",
    "consultation_start_date": "2023-10-18",
    "consultation_end_date": "2023-11-02",
    "latitude": 51.5033,
    "longitude": -0.1195,
    "radius": 500
  },
  {
    "reference": "192021",
    "address": "St Paul's Cathedral, St Paul's Churchyard",
    "postcode": "EC4M 8AD",
    "description": "Restoration of the dome and surrounding structures.",
    "consultation_start_date": "2023-10-20",
    "consultation_end_date": "2023-11-04",
    "latitude": 51.5138,
    "longitude": -0.0984,
    "radius": 700
  },
  {
    "reference": "222324",
    "address": "The Tower of London, St Katharine's & Wapping",
    "postcode": "EC3N 4AB",
    "description": "Installation of new security systems and visitor facilities.",
    "consultation_start_date": "2023-10-22",
    "consultation_end_date": "2023-11-06",
    "latitude": 51.5081,
    "longitude": -0.0759,
    "radius": 900
  }
]
